[
  {
    "id": 1,
    "price": "7000000",
    "img": "projects/1/1.jpg",
    "title": "Ashar Aria",
    "location": "Thane",
    "coords": {
      "lat": 19.207041,
      "lng": 73.00528
    }
  },
  {
    "id": 2,
    "price": "17000000",
    "img": "projects/2/1.jpg",
    "title": "Runwal Bliss",
    "location": "Kanjurmarg",
    "coords": {
      "lat": 19.136259,
      "lng": 72.929024
    }
  },
  {
    "id": 3,
    "price": "24000000",
    "img": "projects/3/1.jpg",
    "title": "Lodha World Towers",
    "location": "Lower Parel",
    "coords": {
      "lat": 19.002157,
      "lng": 72.841576
    }
  },
  {
    "id": 4,
    "price": "41000000",
    "img": "projects/4/1.jpg",
    "title": "Rustomjee Crown Phase 2",
    "location": "Prabhadevi",
    "coords": {
      "lat": 19.015846,
      "lng": 72.827995
    }
  },
  {
    "id": 5,
    "price": "32000000",
    "img": "projects/5/1.jpg",
    "title": "Lodha Park",
    "location": "Lower Parel",
    "coords": {
      "lat": 19.007107,
      "lng": 72.822098
    }
  },
  {
    "id": 6,
    "price": "8000000",
    "img": "projects/6/1.jpg",
    "title": "JP North Barcelona",
    "location": "Mira Road",
    "coords": {
      "lat": 19.28714,
      "lng": 72.868843
    }
  },
  {
    "id": 7,
    "price": "8900000",
    "img": "projects/7/1.jpg",
    "title": "Kalpataru Paramount",
    "location": "Thane West",
    "coords": {
      "lat": 19.27634,
      "lng": 72.959084
    }
  }
]
