[
  {
    "id": 1,
    "price": "7000000",
    "img": "projects/1/1.jpg",
    "title": "Ashar Aria",
    "location": "Thane",
    "coords": {
      "lat": 19.1388,
      "lng": 72.1353
    }
  },
  {
    "id": 2,
    "price": "17000000",
    "img": "projects/2/1.jpg",
    "title": "Runwal Bliss",
    "location": "Kanjurmarg",
    "coords": {
      "lat": 19.2388,
      "lng": 72.2353
    }
  },
  {
    "id": 3,
    "price": "24000000",
    "img": "projects/3/1.jpg",
    "title": "Lodha World Towers",
    "location": "Lower Parel",
    "coords": {
      "lat": 19.3388,
      "lng": 72.3353
    }
  },
  {
    "id": 4,
    "price": "41000000",
    "img": "projects/4/1.jpg",
    "title": "Rustomjee Crown Phase 2",
    "location": "Prabhadevi",
    "coords": {
      "lat": 19.4388,
      "lng": 72.4353
    }
  },
  {
    "id": 5,
    "price": "32000000",
    "img": "projects/5/1.jpg",
    "title": "Lodha Park",
    "location": "Lower Parel",
    "coords": {
      "lat": 19.5388,
      "lng": 72.5353
    }
  },
  {
    "id": 6,
    "price": "8000000",
    "img": "projects/6/1.jpg",
    "title": "JP North Barcelona",
    "location": "Mira Road",
    "coords": {
      "lat": 19.6388,
      "lng": 72.6353
    }
  },
  {
    "id": 7,
    "price": "8900000",
    "img": "projects/7/1.jpg",
    "title": "Kalpataru Paramount",
    "location": "Thane West",
    "coords": {
      "lat": 19.7388,
      "lng": 72.7353
    }
  }
]
